{"type":"FeatureCollection", "features": [
{"type":"Feature","geometry":{"type":"Polygon","coordinates":[[[-122.47387101080575,47.19158056032621],[-122.4738835432651,47.19189763737603],[-122.47561822724276,47.191900959661226],[-122.47561797734473,47.19026525350245],[-122.47389257899813,47.19026508672015],[-122.47387101080575,47.19158056032621]]]},"properties":{"OBJECTID_1":2,"OBJECTID":5,"NAME":"Arlington Elementary School","ADDRESS":"7202 S PINE ST","CITY":"TACOMA","ZIP":"98409","DISTRICT":"TACOMA","DIST_NO":"010","TYPE":"ELEM","PHONE":"(253) 571-3200","WEBSITE":"https://www.tacomaschools.org/arlington/Pages/default.aspx","PRS_ID":145,"GRADE":"K-5","SHAPE_Leng":2054.1278548,"Shape_Le_1":2054.1278548,"Shape_Area":257632.887225}},
{"type":"Feature","geometry":{"type":"Polygon","coordinates":[[[-122.44532799712947,47.184526348496064],[-122.44537981967765,47.18456158727843],[-122.4471444372742,47.1845563322869],[-122.44716405838489,47.184030133715844],[-122.44724002444678,47.184029905873096],[-122.44724864215213,47.18114396772597],[-122.44717344170037,47.18109277774063],[-122.44543107732665,47.18109678801356],[-122.44541094433669,47.18111063337998],[-122.4454086208833,47.182324382329185],[-122.44533205693234,47.18240657637169],[-122.44532799712947,47.184526348496064]]]},"properties":{"OBJECTID_1":3,"OBJECTID":8,"NAME":"Baker Middle School","ADDRESS":"8001 S J ST","CITY":"TACOMA","ZIP":"98408","DISTRICT":"TACOMA","DIST_NO":"010","TYPE":"MID","PHONE":"(253) 571-5000","WEBSITE":"https://www.tacomaschools.org/baker/Pages/default.aspx","PRS_ID":190,"GRADE":"6-8","SHAPE_Leng":3454.43332452,"Shape_Le_1":3454.43332448,"Shape_Area":588079.057044}},
{"type":"Feature","geometry":{"type":"Polygon","coordinates":[[[-122.45003570883011,47.1868391418394],[-122.4500185586078,47.188203021485606],[-122.45243475424617,47.1882043518161],[-122.45245591760738,47.186479730360105],[-122.45004025724741,47.18647763063285],[-122.45003570883011,47.1868391418394]]]},"properties":{"OBJECTID_1":8,"OBJECTID":20,"NAME":"Birney Elementary School","ADDRESS":"1202 S 76TH ST","CITY":"TACOMA","ZIP":"98408","DISTRICT":"TACOMA","DIST_NO":"010","TYPE":"ELEM","PHONE":"(253) 571-4600","WEBSITE":"https://www.tacomaschools.org/birney/Pages/default.aspx","PRS_ID":146,"GRADE":"K-5","SHAPE_Leng":2459.80426365,"Shape_Le_1":2459.80426365,"Shape_Area":377951.729304}},
{"type":"Feature","geometry":{"type":"Polygon","coordinates":[[[-122.41177151335025,47.22297613750382],[-122.4130025984208,47.22298276629755],[-122.41352956126201,47.22295731374876],[-122.41354447265164,47.221331150707734],[-122.41290074021485,47.22132782606561],[-122.41290432965513,47.22101292999228],[-122.4120353706496,47.22100847353269],[-122.412027895949,47.22166557014145],[-122.41138416652798,47.22166220906031],[-122.41138261243903,47.221799093769356],[-122.41091594772084,47.22179664550656],[-122.41090261520507,47.222971451474905],[-122.41177151335025,47.22297613750382]]]},"properties":{"OBJECTID_1":9,"OBJECTID":21,"NAME":"Blix Elementary School","ADDRESS":"1302 E 38TH ST","CITY":"TACOMA","ZIP":"98404","DISTRICT":"TACOMA","DIST_NO":"010","TYPE":"ELEM","PHONE":"(253) 571-7400","WEBSITE":"https://www.tacomaschools.org/blix/Pages/default.aspx","PRS_ID":323,"GRADE":"K-5","SHAPE_Leng":2740.64227522,"Shape_Le_1":2740.64227519,"Shape_Area":376526.868495}},
{"type":"Feature","geometry":{"type":"Polygon","coordinates":[[[-122.41296538694347,47.19641471551533],[-122.41294684907733,47.19803009821214],[-122.41560117937077,47.19803721950583],[-122.4156172819446,47.19631306812292],[-122.41296644700168,47.196318756703995],[-122.41296538694347,47.19641471551533]]]},"properties":{"OBJECTID_1":10,"OBJECTID":24,"NAME":"Boze Elementary School","ADDRESS":"1140 E 65TH ST","CITY":"TACOMA","ZIP":"98404","DISTRICT":"TACOMA","DIST_NO":"010","TYPE":"ELEM","PHONE":"(253) 571-4688","WEBSITE":"https://www.tacomaschools.org/boze/Pages/default.aspx","PRS_ID":147,"GRADE":"K-5","SHAPE_Leng":2571.98595374,"Shape_Le_1":2571.98595376,"Shape_Area":413349.641065}},
{"type":"Feature","geometry":{"type":"Polygon","coordinates":[[[-122.42249930540007,47.30132565865134],[-122.42262934657347,47.30163443514037],[-122.42266439178505,47.302822372217165],[-122.42274661521047,47.30287720018308],[-122.42795687947823,47.302873460781605],[-122.42792848820908,47.30114411496747],[-122.4224939610276,47.30114242740762],[-122.42249930540007,47.30132565865134]]]},"properties":{"OBJECTID_1":11,"OBJECTID":27,"NAME":"Browns Point Elementary School","ADDRESS":"1526 51ST ST NE","CITY":"TACOMA","ZIP":"98422","DISTRICT":"TACOMA","DIST_NO":"010","TYPE":"ELEM","PHONE":"(253) 571-7600","WEBSITE":"https://www.tacomaschools.org/bp/Pages/default.aspx","PRS_ID":148,"GRADE":"K-5","SHAPE_Leng":3919.21930029,"Shape_Le_1":3919.21930028,"Shape_Area":833474.365366}},
{"type":"Feature","geometry":{"type":"Polygon","coordinates":[[[-122.46054935210307,47.25547520500272],[-122.46061346002499,47.255398994536826],[-122.46113090807442,47.25534430048753],[-122.46089594136542,47.254315608453496],[-122.45982159865848,47.25442915915219],[-122.46005660594068,47.25545784959499],[-122.46053387756768,47.255407406577525],[-122.46054935210307,47.25547520500272]]]},"properties":{"OBJECTID_1":12,"OBJECTID":28,"NAME":"Bryant Montessori School","ADDRESS":"717 S GRANT AVE","CITY":"TACOMA","ZIP":"98405","DISTRICT":"TACOMA","DIST_NO":"010","TYPE":"ELEM","PHONE":"(253) 571-2800","WEBSITE":"https://www.tacomaschools.org/bryant/Pages/default.aspx","PRS_ID":149,"GRADE":"K-8","SHAPE_Leng":1349.46334645,"Shape_Le_1":1349.46334645,"Shape_Area":103011.195989}},
{"type":"Feature","geometry":{"type":"Polygon","coordinates":[[[-122.5110213259093,47.2548921131741],[-122.51105979729066,47.25484565880314],[-122.51106498483529,47.25420686686033],[-122.51048775838719,47.25420480999484],[-122.5104876108803,47.25489844341415],[-122.5110213259093,47.2548921131741]]]},"properties":{"OBJECTID_1":15,"OBJECTID":58,"NAME":"Covenant High School","ADDRESS":"620 S SHIRLEY ST","CITY":"TACOMA","ZIP":"98465","DISTRICT":"NOT APPLICABLE","DIST_NO":"","TYPE":"HIGH","PHONE":"(253) 759-9570","WEBSITE":"http://chstacoma.org/","PRS_ID":341,"GRADE":"9-12","SHAPE_Leng":785.158449278,"Shape_Le_1":785.15844928,"Shape_Area":35685.2019001}},
{"type":"Feature","geometry":{"type":"Polygon","coordinates":[[[-122.39987572139836,47.29575566655253],[-122.40052491118861,47.29569130043533],[-122.40111398175493,47.295825014312335],[-122.40155469464236,47.29501620731177],[-122.40116863498129,47.294664111602984],[-122.4010128027765,47.294321271877884],[-122.4009880545426,47.29373827690239],[-122.39893612945242,47.29373100976849],[-122.3988839239249,47.294079621218586],[-122.39900571200455,47.29441254298318],[-122.39987572139836,47.29575566655253]]]},"properties":{"OBJECTID_1":16,"OBJECTID":59,"NAME":"Crescent Heights Elementary School","ADDRESS":"4110 NASSAU AVE NE","CITY":"TACOMA","ZIP":"98422","DISTRICT":"TACOMA","DIST_NO":"010","TYPE":"ELEM","PHONE":"(253) 571-5500","WEBSITE":"https://www.tacomaschools.org/ch/Pages/default.aspx","PRS_ID":282,"GRADE":"K-5","SHAPE_Leng":2434.69075003,"Shape_Le_1":2434.69075003,"Shape_Area":353816.964334}},
{"type":"Feature","geometry":{"type":"Polygon","coordinates":[[[-122.50091644472612,47.248909991796445],[-122.50086383393894,47.250020380754336],[-122.50277740334506,47.250031597455774],[-122.50280134962587,47.24957903952296],[-122.50278826832032,47.24878825161691],[-122.50092423399362,47.248745576614496],[-122.50091644472612,47.248909991796445]]]},"properties":{"OBJECTID_1":17,"OBJECTID":65,"NAME":"DeLong Elementary School","ADDRESS":"4901 S 14TH ST","CITY":"TACOMA","ZIP":"98405","DISTRICT":"TACOMA","DIST_NO":"010","TYPE":"ELEM","PHONE":"(253) 571-5800","WEBSITE":"https://www.tacomaschools.org/delong/Pages/default.aspx","PRS_ID":151,"GRADE":"K-5","SHAPE_Leng":1857.47181523,"Shape_Le_1":1857.47181526,"Shape_Area":216428.018786}},
{"type":"Feature","geometry":{"type":"Polygon","coordinates":[[[-122.50541680251374,47.27091428029235],[-122.50652987826832,47.270919384003484],[-122.50653460813699,47.27015172905723],[-122.50782391609648,47.27015763058339],[-122.50783158740195,47.26898102887663],[-122.50543440170968,47.26896667425584],[-122.50541680251374,47.27091428029235]]]},"properties":{"OBJECTID_1":18,"OBJECTID":72,"NAME":"Downing Elementary School","ADDRESS":"2502 N ORCHARD ST","CITY":"TACOMA","ZIP":"98406","DISTRICT":"TACOMA","DIST_NO":"010","TYPE":"ELEM","PHONE":"(253) 571-7100","WEBSITE":"https://www.tacomaschools.org/downing/Pages/default.aspx","PRS_ID":152,"GRADE":"K-5","SHAPE_Leng":2611.15984382,"Shape_Le_1":2611.15984379,"Shape_Area":333242.859063}},
{"type":"Feature","geometry":{"type":"Polygon","coordinates":[[[-122.47449182547837,47.204579003618996],[-122.4768238988305,47.2045944482171],[-122.47681879761232,47.203661155921026],[-122.47658809237294,47.20294914288853],[-122.4738001838526,47.20294736658115],[-122.47375206275598,47.20298023435035],[-122.4737595416448,47.204559280290596],[-122.47380797552238,47.20459219448211],[-122.47449182547837,47.204579003618996]]]},"properties":{"OBJECTID_1":19,"OBJECTID":80,"NAME":"Edison Elementary School","ADDRESS":"5830 S PINE ST","CITY":"TACOMA","ZIP":"98409","DISTRICT":"TACOMA","DIST_NO":"010","TYPE":"ELEM","PHONE":"(253) 571-1700","WEBSITE":"https://www.tacomaschools.org/edison/Pages/default.aspx","PRS_ID":153,"GRADE":"K-5","SHAPE_Leng":2680.097736,"Shape_Le_1":2680.09773599,"Shape_Area":449130.944216}},
{"type":"Feature","geometry":{"type":"Polygon","coordinates":[[[-122.42876487725606,47.20266186189785],[-122.43122262937693,47.20266927246521],[-122.43121936336199,47.201573512336786],[-122.42878565252084,47.201552492145005],[-122.42876487725606,47.20266186189785]]]},"properties":{"OBJECTID_1":24,"OBJECTID":96,"NAME":"Fawcett Elementary School","ADDRESS":"126 E 60TH ST","CITY":"TACOMA","ZIP":"98404","DISTRICT":"TACOMA","DIST_NO":"010","TYPE":"ELEM","PHONE":"(253) 571-4700","WEBSITE":"https://www.tacomaschools.org/fawcett/Pages/default.aspx","PRS_ID":154,"GRADE":"K-5","SHAPE_Leng":2020.28698026,"Shape_Le_1":2020.28698026,"Shape_Area":244497.198393}},
{"type":"Feature","geometry":{"type":"Polygon","coordinates":[[[-122.44210081544445,47.17875812080802],[-122.44209630609656,47.1809344059362],[-122.44314114303178,47.18093128407573],[-122.4430935250689,47.18062983405566],[-122.44314464412162,47.179196273827365],[-122.44314566970854,47.17868905500564],[-122.44210095791085,47.17868957604787],[-122.44210081544445,47.17875812080802]]]},"properties":{"OBJECTID_1":25,"OBJECTID":97,"NAME":"Fern Hill Elementary School","ADDRESS":"8442 S PARK AVE","CITY":"TACOMA","ZIP":"98444","DISTRICT":"TACOMA","DIST_NO":"010","TYPE":"ELEM","PHONE":"(253) 571-3888","WEBSITE":"https://www.tacomaschools.org/fh/Pages/default.aspx","PRS_ID":155,"GRADE":"K-5","SHAPE_Leng":2182.18277707,"Shape_Le_1":2182.18277708,"Shape_Area":208246.944265}},
{"type":"Feature","geometry":{"type":"Polygon","coordinates":[[[-122.40250157108117,47.20698776338499],[-122.40299007113254,47.20698190253769],[-122.40297105497686,47.208001741150156],[-122.4031987641312,47.2092387383927],[-122.40331791757204,47.20952730335325],[-122.40352258200777,47.20982443026745],[-122.403792434056,47.210013022418586],[-122.4074395491795,47.20996875719069],[-122.40447793451084,47.2063465632961],[-122.40251385363307,47.206370636333],[-122.40250157108117,47.20698776338499]]]},"properties":{"OBJECTID_1":26,"OBJECTID":101,"NAME":"First Creek Middle School","ADDRESS":"1801 E 56TH ST","CITY":"TACOMA","ZIP":"98404","DISTRICT":"TACOMA","DIST_NO":"010","TYPE":"MID","PHONE":"(253) 571-2700","WEBSITE":"https://www.tacomaschools.org/fc/Pages/default.aspx","PRS_ID":196,"GRADE":"6-8","SHAPE_Leng":4406.01649113,"Shape_Le_1":4406.01649114,"Shape_Area":971689.570729}},
{"type":"Feature","geometry":{"type":"Polygon","coordinates":[[[-122.49394383156165,47.24123008765028],[-122.49409587410527,47.241570085509565],[-122.49468627767821,47.241194886310964],[-122.49681302946087,47.24121899336082],[-122.49650872137607,47.23930504547541],[-122.49634477111375,47.23814096323088],[-122.49624317951955,47.237804835398606],[-122.49625640806946,47.2375673572745],[-122.49603029342346,47.23599037402277],[-122.49348766329392,47.23580906860619],[-122.49348805546578,47.2356383878552],[-122.49295857385177,47.23562360455768],[-122.49360547077443,47.23813379616752],[-122.49375629107786,47.238987464897924],[-122.49378050319596,47.23940408184532],[-122.49377636175983,47.2403938679773],[-122.4937988543756,47.240710869561724],[-122.49394383156165,47.24123008765028]]]},"properties":{"OBJECTID_1":28,"OBJECTID":106,"NAME":"Foss High School","ADDRESS":"2112 S TYLER ST","CITY":"TACOMA","ZIP":"98405","DISTRICT":"TACOMA","DIST_NO":"010","TYPE":"HIGH","PHONE":"(253) 571-7300","WEBSITE":"https://www.tacomaschools.org/foss/Pages/default.aspx","PRS_ID":185,"GRADE":"9-12","SHAPE_Leng":5679.69770723,"Shape_Le_1":5679.69770722,"Shape_Area":1382214.05694}},
{"type":"Feature","geometry":{"type":"Polygon","coordinates":[[[-122.4779001125189,47.24958440104349],[-122.47790290328861,47.24995692191134],[-122.47963109353363,47.2499502764054],[-122.47962844101293,47.249358525994595],[-122.4799755256654,47.24935714561578],[-122.47996932637908,47.248419485025515],[-122.4803427235974,47.24827271385301],[-122.48070509082135,47.24827125339575],[-122.48070122727071,47.24773937905661],[-122.48016572111943,47.24774153441693],[-122.4801605276298,47.24702642145331],[-122.47935523147918,47.247029754994834],[-122.47937307159161,47.248373281001506],[-122.4778910422975,47.24837294125851],[-122.4779001125189,47.24958440104349]]]},"properties":{"OBJECTID_1":29,"OBJECTID":108,"NAME":"Franklin Elementary School","ADDRESS":"1402 S LAWRENCE ST","CITY":"TACOMA","ZIP":"98405","DISTRICT":"TACOMA","DIST_NO":"010","TYPE":"ELEM","PHONE":"(253) 571-1400","WEBSITE":"https://www.tacomaschools.org/franklin/Pages/default.aspx","PRS_ID":156,"GRADE":"K-5","SHAPE_Leng":3498.08179226,"Shape_Le_1":3498.0817922,"Shape_Area":402579.140863}},
{"type":"Feature","geometry":{"type":"Polygon","coordinates":[[[-122.53420906839132,47.253925087505785],[-122.53420923137112,47.255010482646426],[-122.53680169851465,47.255022952414556],[-122.53680877122157,47.2536897164042],[-122.53420903148898,47.253675963875864],[-122.53420906839132,47.253925087505785]]]},"properties":{"OBJECTID_1":30,"OBJECTID":114,"NAME":"Geiger Montessori School","ADDRESS":"7401 S 8TH ST","CITY":"TACOMA","ZIP":"98465","DISTRICT":"TACOMA","DIST_NO":"010","TYPE":"ELEM","PHONE":"(253) 571-6800","WEBSITE":"https://www.tacomaschools.org/geiger/Pages/default.aspx","PRS_ID":157,"GRADE":"K-5","SHAPE_Leng":2262.49635214,"Shape_Le_1":2262.49635215,"Shape_Area":313668.219524}},
{"type":"Feature","geometry":{"type":"Polygon","coordinates":[[[-122.45853059793734,47.21063937212171],[-122.4584550840441,47.21294373829998],[-122.46179143266869,47.21298849831802],[-122.46171568382358,47.21232942358929],[-122.46151651789927,47.21098303199096],[-122.46147819626964,47.21061113828858],[-122.45853272790114,47.210570790545674],[-122.45853059793734,47.21063937212171]]]},"properties":{"OBJECTID_1":31,"OBJECTID":115,"NAME":"Giaudrone Middle School","ADDRESS":"4902 S ALASKA ST","CITY":"TACOMA","ZIP":"98408","DISTRICT":"TACOMA","DIST_NO":"010","TYPE":"MID","PHONE":"(253) 571-5811","WEBSITE":"https://www.tacomaschools.org/giaudrone/Pages/default.aspx","PRS_ID":327,"GRADE":"6-8","SHAPE_Leng":3298.08257885,"Shape_Le_1":3298.08257886,"Shape_Area":675630.439006}},
{"type":"Feature","geometry":{"type":"Polygon","coordinates":[[[-122.52144403600336,47.254803030248745],[-122.52266978311094,47.25478977725362],[-122.52266982487971,47.2547012194435],[-122.52427251454529,47.25467208944147],[-122.5242725753478,47.254535523060234],[-122.5247867167104,47.25453824073391],[-122.5247871951128,47.25343473556444],[-122.52625434275,47.25341624564192],[-122.52621744379306,47.25187433304039],[-122.52126520219328,47.251924540307485],[-122.52130399828428,47.25360694677121],[-122.52144843688339,47.253605386065765],[-122.52144403600336,47.254803030248745]]]},"properties":{"OBJECTID_1":32,"OBJECTID":123,"NAME":"Grant Center for the Expressive Arts","ADDRESS":"6501 S 10TH ST","CITY":"TACOMA","ZIP":"98465","DISTRICT":"TACOMA","DIST_NO":"010","TYPE":"ELEM","PHONE":"(253) 571-5400","WEBSITE":"https://www.tacomaschools.org/grant/Pages/default.aspx","PRS_ID":158,"GRADE":"K-5","SHAPE_Leng":4558.20278855,"Shape_Le_1":4558.20278853,"Shape_Area":1073982.771}},
{"type":"Feature","geometry":{"type":"Polygon","coordinates":[[[-122.49041190474124,47.199420879556236],[-122.49047214398686,47.199785139974956],[-122.49034268004179,47.20010334495372],[-122.49047129747763,47.20082854033874],[-122.49062222685556,47.20129637617114],[-122.49061781637957,47.20244216568704],[-122.49241784745819,47.20244116735121],[-122.49190576585629,47.199269778771054],[-122.49203660954335,47.199270045596506],[-122.49208568685202,47.19879164498222],[-122.4922769089534,47.198173885361726],[-122.49077354513506,47.198166343560594],[-122.49053252225158,47.198184446204564],[-122.49026564615963,47.198694120182616],[-122.49022720641753,47.19911621647392],[-122.49041190474124,47.199420879556236]]]},"properties":{"OBJECTID_1":33,"OBJECTID":124,"NAME":"Gray Middle School","ADDRESS":"6229 S TYLER ST","CITY":"TACOMA","ZIP":"98409","DISTRICT":"TACOMA","DIST_NO":"010","TYPE":"MID","PHONE":"(253) 571-5200","WEBSITE":"https://www.tacomaschools.org/gray/Pages/default.aspx","PRS_ID":413,"GRADE":"6-8","SHAPE_Leng":4068.28026661,"Shape_Le_1":4068.28026662,"Shape_Area":654858.131463}},
{"type":"Feature","geometry":{"type":"Polygon","coordinates":[[[-122.40477290091133,47.1800967567453],[-122.40479461464102,47.181708354070864],[-122.40508457205672,47.181711306956146],[-122.4050901871848,47.18199299352471],[-122.40627198396393,47.18199542723845],[-122.40623590439795,47.180890186639736],[-122.40613843909075,47.18089004640221],[-122.40612623765062,47.180084448629145],[-122.40477290091133,47.1800967567453]]]},"properties":{"OBJECTID_1":34,"OBJECTID":130,"NAME":"Harvard Elementary School","ADDRESS":"1709 85TH ST E","CITY":"TACOMA","ZIP":"98445","DISTRICT":"FRANKLIN PIERCE","DIST_NO":"402","TYPE":"ELEM","PHONE":"(253) 298-4100","WEBSITE":"http://harvard.fpschools.org/","PRS_ID":50,"GRADE":"K-6","SHAPE_Leng":2115.22331292,"Shape_Le_1":2115.22331297,"Shape_Area":238102.757969}},
{"type":"Feature","geometry":{"type":"Polygon","coordinates":[[[-122.43937951921917,47.1954823550794],[-122.43937319577903,47.196699740820115],[-122.44173168797163,47.196712725551315],[-122.44174389628984,47.1954301253556],[-122.43937998864978,47.19541381161107],[-122.43937951921917,47.1954823550794]]]},"properties":{"OBJECTID_1":37,"OBJECTID":138,"NAME":"idea - School of Industrial Design, Engineering and Art","ADDRESS":"6701 S PARK AVE","CITY":"TACOMA","ZIP":"98408","DISTRICT":"TACOMA","DIST_NO":"010","TYPE":"HIGH","PHONE":"(253) 571-2555","WEBSITE":"https://www.tacomaschools.org/idea/Pages/default.aspx","PRS_ID":476,"GRADE":"9-12","SHAPE_Leng":2110.91048393,"Shape_Le_1":2110.91048393,"Shape_Area":274988.728634}},
{"type":"Feature","geometry":{"type":"MultiPolygon","coordinates":[[[[-122.46317753971704,47.2572311848355],[-122.46318043367211,47.25749773386255],[-122.46412158552235,47.25749642193108],[-122.4648066063643,47.25772071411324],[-122.46480522198853,47.257095062835695],[-122.4631760708484,47.25709584751158],[-122.46317753971704,47.2572311848355]]],[[[-122.46496645196841,47.25716341058964],[-122.46496770605803,47.25772962350014],[-122.465410153007,47.257873182185186],[-122.46540927114731,47.25709476473593],[-122.46593278188993,47.2570945032704],[-122.4659276957116,47.25556042054117],[-122.46449391313399,47.2555659856856],[-122.4642112464676,47.25562563754716],[-122.46316583520131,47.25615379840559],[-122.46317517399572,47.257013598585324],[-122.46496611805026,47.257012732671235],[-122.46496645196841,47.25716341058964]]]]},"properties":{"OBJECTID_1":38,"OBJECTID":142,"NAME":"Jason Lee Middle School","ADDRESS":"602 N SPRAGUE AVE","CITY":"TACOMA","ZIP":"98403","DISTRICT":"TACOMA","DIST_NO":"010","TYPE":"MID","PHONE":"(253) 571-7700","WEBSITE":"https://www.tacomaschools.org/jl/Pages/default.aspx","PRS_ID":194,"GRADE":"6-8","SHAPE_Leng":4072.30025115,"Shape_Le_1":4072.30025115,"Shape_Area":432466.316843}},
{"type":"Feature","geometry":{"type":"Polygon","coordinates":[[[-122.494543235481,47.26167560715751],[-122.4960236720316,47.26167335621593],[-122.49601916798254,47.26002897596982],[-122.4945386982335,47.26003128309418],[-122.494543235481,47.26167560715751]]]},"properties":{"OBJECTID_1":39,"OBJECTID":143,"NAME":"Jefferson Elementary School","ADDRESS":"4302 N 13TH ST","CITY":"TACOMA","ZIP":"98406","DISTRICT":"TACOMA","DIST_NO":"010","TYPE":"ELEM","PHONE":"(253) 571-4000","WEBSITE":"https://www.tacomaschools.org/jefferson/Pages/default.aspx","PRS_ID":160,"GRADE":"K-5","SHAPE_Leng":1934.75011062,"Shape_Le_1":1934.75011063,"Shape_Area":220484.641053}},
{"type":"Feature","geometry":{"type":"Polygon","coordinates":[[[-122.4600120651281,47.22504793111823],[-122.45998740122032,47.226350971665745],[-122.46248185151123,47.22637129148157],[-122.46254484394703,47.22623491022165],[-122.46257892989563,47.22550780239284],[-122.46250833849025,47.22499959134997],[-122.46001336303534,47.22497935134793],[-122.4600120651281,47.22504793111823]]]},"properties":{"OBJECTID_1":40,"OBJECTID":144,"NAME":"Jennie Reed Elementary","ADDRESS":"1802 S 36TH ST","CITY":"TACOMA","ZIP":"98418","DISTRICT":"TACOMA","DIST_NO":"010","TYPE":"ELEM","PHONE":"(253) 571-6400","WEBSITE":"https://www.tacomaschools.org/reed/Pages/default.aspx","PRS_ID":171,"GRADE":"K-5","SHAPE_Leng":2244.32738687,"Shape_Le_1":2244.32738686,"Shape_Area":317660.788086}},
{"type":"Feature","geometry":{"type":"Polygon","coordinates":[[[-122.42710234820896,47.17911846059085],[-122.42710357241327,47.17991621484662],[-122.42871075197877,47.17992132251943],[-122.42870924708792,47.17895806148676],[-122.42895069593331,47.1790717206448],[-122.43133436564395,47.17908276232605],[-122.43133258862545,47.17782059383695],[-122.42710032411343,47.177800158401226],[-122.42710234820896,47.17911846059085]]]},"properties":{"OBJECTID_1":41,"OBJECTID":159,"NAME":"Larchmont Elementary School","ADDRESS":"8601 E B ST","CITY":"TACOMA","ZIP":"98445","DISTRICT":"TACOMA","DIST_NO":"010","TYPE":"ELEM","PHONE":"(253) 571-6200","WEBSITE":"https://www.tacomaschools.org/larchmont/Pages/default.aspx","PRS_ID":161,"GRADE":"K-5","SHAPE_Leng":3729.86734222,"Shape_Le_1":3729.86734223,"Shape_Area":606661.175868}},
{"type":"Feature","geometry":{"type":"Polygon","coordinates":[[[-122.44183310378283,47.23035865341603],[-122.44183840153228,47.23064453654669],[-122.4431422406999,47.230295232229835],[-122.44310615398244,47.22999334143216],[-122.44315691403305,47.229654417740036],[-122.443267789346,47.229402833669546],[-122.44329314407179,47.22780943913703],[-122.44363967583729,47.22754813091512],[-122.44364095169156,47.22672101913442],[-122.44348979824944,47.22646319543285],[-122.44343124654779,47.22603509760078],[-122.4432892749217,47.225898622319534],[-122.44328553304804,47.2254462515202],[-122.44290451405297,47.22511864165218],[-122.44290901034356,47.22483900711148],[-122.44185129825813,47.22483143580658],[-122.4418514499804,47.22478129693286],[-122.44081794456967,47.224784623011026],[-122.44083824465572,47.22794587648851],[-122.44184180338607,47.22794317683474],[-122.44184138410492,47.2280802634321],[-122.44084174414682,47.2280829531279],[-122.44090137563039,47.22834808735755],[-122.44184077089507,47.228249037890215],[-122.44183310378283,47.23035865341603]]]},"properties":{"OBJECTID_1":43,"OBJECTID":164,"NAME":"Lincoln High School","ADDRESS":"701 S 37TH ST","CITY":"TACOMA","ZIP":"98418","DISTRICT":"TACOMA","DIST_NO":"010","TYPE":"HIGH","PHONE":"(253) 571-6700","WEBSITE":"https://www.tacomaschools.org/lincoln/Pages/default.aspx","PRS_ID":186,"GRADE":"9-12","SHAPE_Leng":5888.33818338,"Shape_Le_1":5888.33818336,"Shape_Area":1063535.5212}},
{"type":"Feature","geometry":{"type":"Polygon","coordinates":[[[-122.39986881074752,47.2164373023946],[-122.40026099923668,47.216459731396355],[-122.40157489104536,47.21661988485295],[-122.40166658537754,47.21657935461943],[-122.40204248832535,47.21568874109952],[-122.40247129826925,47.21488887677299],[-122.40001044650859,47.21542146245687],[-122.39965697619851,47.215563267634735],[-122.39946505077343,47.2157739610481],[-122.39908802274557,47.216527659445084],[-122.39986881074752,47.2164373023946]]]},"properties":{"OBJECTID_1":44,"OBJECTID":165,"NAME":"Lister Elementary","ADDRESS":"2106 E 44TH ST","CITY":"TACOMA","ZIP":"98404","DISTRICT":"TACOMA","DIST_NO":"010","TYPE":"ELEM","PHONE":"(253) 571-2900","WEBSITE":"https://www.tacomaschools.org/lister/Pages/default.aspx","PRS_ID":162,"GRADE":"K-5","SHAPE_Leng":2434.17875335,"Shape_Le_1":2434.17875333,"Shape_Area":300372.569143}},
{"type":"Feature","geometry":{"type":"Polygon","coordinates":[[[-122.51055193326492,47.18053230927577],[-122.51373314251747,47.18050250991296],[-122.51370243175518,47.17905471272216],[-122.51373377844617,47.17905474013277],[-122.51369934561882,47.17741979065933],[-122.51021827794209,47.17743027301255],[-122.51023556695985,47.17905825368904],[-122.51053625947428,47.17905752252988],[-122.51055193326492,47.18053230927577]]]},"properties":{"OBJECTID_1":45,"OBJECTID":166,"NAME":"Lochburn Middle School","ADDRESS":"5431 STEILACOOM BLVD SW","CITY":"LAKEWOOD","ZIP":"98499","DISTRICT":"CLOVER PARK","DIST_NO":"400","TYPE":"MID","PHONE":"(253) 583-5420","WEBSITE":"https://lochburn.cloverpark.k12.wa.us/","PRS_ID":34,"GRADE":"6-8","SHAPE_Leng":3995.67436373,"Shape_Le_1":3995.67436375,"Shape_Area":937119.029498}},
{"type":"Feature","geometry":{"type":"Polygon","coordinates":[[[-122.46670955605114,47.267624281137884],[-122.46682278107524,47.26771741669885],[-122.46764420666082,47.26798440402886],[-122.46787200723146,47.26766348310734],[-122.46566647857371,47.26694660485597],[-122.46518158442183,47.267639492085195],[-122.46627212088134,47.2679936227652],[-122.46656481950863,47.26757610095075],[-122.46670955605114,47.267624281137884]]]},"properties":{"OBJECTID_1":46,"OBJECTID":167,"NAME":"Lowell Elementary","ADDRESS":"810 MR DAHL DR","CITY":"TACOMA","ZIP":"98403","DISTRICT":"TACOMA","DIST_NO":"010","TYPE":"ELEM","PHONE":"(253) 571-7200","WEBSITE":"https://www.tacomaschools.org/lowell/Pages/default.aspx","PRS_ID":163,"GRADE":"K-5","SHAPE_Leng":1809.63539577,"Shape_Le_1":1809.63539575,"Shape_Area":122323.78929}},
{"type":"Feature","geometry":{"type":"Polygon","coordinates":[[[-122.49500511300099,47.196289803219805],[-122.49420866208928,47.19657785906446],[-122.49421224305698,47.197348089623326],[-122.49688495753558,47.19735993163499],[-122.49688653973666,47.19701132122706],[-122.49621296119014,47.197005394144774],[-122.49621536672002,47.19690764796052],[-122.49565989368703,47.19690756842828],[-122.49566440231527,47.19656854988574],[-122.49548245432372,47.19656858652503],[-122.49548150831508,47.19621894453792],[-122.49500511300099,47.196289803219805]]]},"properties":{"OBJECTID_1":47,"OBJECTID":168,"NAME":"Manitou Park Elementary","ADDRESS":"4330 S 66TH ST","CITY":"TACOMA","ZIP":"98409","DISTRICT":"TACOMA","DIST_NO":"010","TYPE":"ELEM","PHONE":"(253) 571-5300","WEBSITE":"https://www.tacomaschools.org/mp/Pages/default.aspx","PRS_ID":165,"GRADE":"K-5","SHAPE_Leng":2059.11604731,"Shape_Le_1":2059.1160473,"Shape_Area":171014.373881}},
{"type":"Feature","geometry":{"type":"Polygon","coordinates":[[[-122.44731474839195,47.208416870724555],[-122.44731873473235,47.20992419074141],[-122.44832419789178,47.209923341600195],[-122.44832001312469,47.20834737294324],[-122.44731456318716,47.20834835638971],[-122.44731474839195,47.208416870724555]]]},"properties":{"OBJECTID_1":48,"OBJECTID":169,"NAME":"Mann Elementary School","ADDRESS":"1002 S 52ND ST","CITY":"TACOMA","ZIP":"98408","DISTRICT":"TACOMA","DIST_NO":"010","TYPE":"ELEM","PHONE":"(253) 571-6300","WEBSITE":"https://www.tacomaschools.org/mann/Pages/default.aspx","PRS_ID":166,"GRADE":"K-5","SHAPE_Leng":1649.38392598,"Shape_Le_1":1649.38392595,"Shape_Area":143640.825931}},
{"type":"Feature","geometry":{"type":"Polygon","coordinates":[[[-122.42098892785144,47.22454134413139],[-122.42098782508934,47.2246408939371],[-122.42183817332996,47.224638538068675],[-122.42183237239358,47.22324065145285],[-122.42100330111649,47.22324300637051],[-122.42098892785144,47.22454134413139]]]},"properties":{"OBJECTID_1":49,"OBJECTID":173,"NAME":"Mary Lyon Elementary School","ADDRESS":"3702 E MCKINLEY AVE","CITY":"TACOMA","ZIP":"98404","DISTRICT":"TACOMA","DIST_NO":"010","TYPE":"ELEM","PHONE":"(253) 571-4800","WEBSITE":"https://www.tacomaschools.org/lyon/Pages/default.aspx","PRS_ID":164,"GRADE":"K-5","SHAPE_Leng":1437.04420871,"Shape_Le_1":1437.04420868,"Shape_Area":106381.154175}},
{"type":"Feature","geometry":{"type":"Polygon","coordinates":[[[-122.48908792718333,47.27344357503298],[-122.48908212054648,47.27382544313413],[-122.49442083350961,47.273845234682845],[-122.49442882838828,47.27313217649721],[-122.48909291515986,47.273115529956215],[-122.48908792718333,47.27344357503298]]]},"properties":{"OBJECTID_1":50,"OBJECTID":174,"NAME":"Mason Middle School","ADDRESS":"3901 N 28TH ST","CITY":"TACOMA","ZIP":"98407","DISTRICT":"TACOMA","DIST_NO":"010","TYPE":"MID","PHONE":"(253) 571-7000","WEBSITE":"https://www.tacomaschools.org/mason/Pages/default.aspx","PRS_ID":195,"GRADE":"6-8","SHAPE_Leng":3169.03241387,"Shape_Le_1":3169.0324139,"Shape_Area":344307.077092}},
{"type":"Feature","geometry":{"type":"Polygon","coordinates":[[[-122.44611018938328,47.23947753448218],[-122.44665865490563,47.24188966946328],[-122.44777275147989,47.241772216237244],[-122.4472202843373,47.239346825488795],[-122.44663633143644,47.23946334685834],[-122.44659637702146,47.23928787309686],[-122.44607944068596,47.239342300159855],[-122.44611018938328,47.23947753448218]]]},"properties":{"OBJECTID_1":51,"OBJECTID":175,"NAME":"McCarver Elementary","ADDRESS":"2111 S J ST","CITY":"TACOMA","ZIP":"98405","DISTRICT":"TACOMA","DIST_NO":"010","TYPE":"ELEM","PHONE":"(253) 571-4900","WEBSITE":"https://www.tacomaschools.org/mccarver/Pages/default.aspx","PRS_ID":167,"GRADE":"K-5","SHAPE_Leng":2479.89968335,"Shape_Le_1":2479.89968334,"Shape_Area":254843.468533}},
{"type":"Feature","geometry":{"type":"Polygon","coordinates":[[[-122.39987572139836,47.29575566655253],[-122.40038105644459,47.29653577081488],[-122.40067124897216,47.29688781419187],[-122.4013673992518,47.29744735020356],[-122.40200681781982,47.297318654854955],[-122.40378915795078,47.29731441359587],[-122.40367653121176,47.293747744359074],[-122.40367797276245,47.291930670585394],[-122.40099831566437,47.291924463720314],[-122.4009880545426,47.29373827690239],[-122.4010128027765,47.294321271877884],[-122.40116863498129,47.294664111602984],[-122.40155469464236,47.29501620731177],[-122.40111398175493,47.295825014312335],[-122.40052491118861,47.29569130043533],[-122.39987572139836,47.29575566655253]]]},"properties":{"OBJECTID_1":52,"OBJECTID":178,"NAME":"Meeker Middle School","ADDRESS":"4402 NASSAU AVE NE","CITY":"TACOMA","ZIP":"98422","DISTRICT":"TACOMA","DIST_NO":"010","TYPE":"MID","PHONE":"(253) 571-6500","WEBSITE":"https://www.tacomaschools.org/meeker/Pages/default.aspx","PRS_ID":197,"GRADE":"6-8","SHAPE_Leng":5766.08401317,"Shape_Le_1":5766.08401319,"Shape_Area":1372910.94783}},
{"type":"Feature","geometry":{"type":"Polygon","coordinates":[[[-122.50007552788438,47.19039576345231],[-122.50010167789654,47.19042719403713],[-122.5012457252873,47.19041637163347],[-122.50451410483653,47.19043193251976],[-122.50455453892057,47.190404721883006],[-122.5045691935502,47.1887131102009],[-122.50467123183438,47.18855252565251],[-122.50547096616711,47.18855757970478],[-122.50547460660452,47.1847055319972],[-122.50103584989091,47.1847167460957],[-122.50103796142353,47.18543581607139],[-122.49758183021562,47.18542102740109],[-122.49753618301403,47.190383376376204],[-122.49760540022989,47.190415210196186],[-122.49980872090886,47.190425790882095],[-122.50007552788438,47.19039576345231]]]},"properties":{"OBJECTID_1":54,"OBJECTID":183,"NAME":"Mount Tahoma High School","ADDRESS":"4634 S 74TH ST","CITY":"TACOMA","ZIP":"98409","DISTRICT":"TACOMA","DIST_NO":"010","TYPE":"HIGH","PHONE":"(253) 571-3800","WEBSITE":"https://www.tacomaschools.org/mt/Pages/default.aspx","PRS_ID":326,"GRADE":"9-12","SHAPE_Leng":8092.50653269,"Shape_Le_1":8092.50653269,"Shape_Area":3719384.56982}},
{"type":"Feature","geometry":{"type":"Polygon","coordinates":[[[-122.37277716564945,47.282585281469395],[-122.3751523448375,47.28264693330527],[-122.37522023965482,47.28107706314483],[-122.37284609809133,47.281028836374645],[-122.37277716564945,47.282585281469395]]]},"properties":{"OBJECTID_1":55,"OBJECTID":192,"NAME":"Northeast Tacoma Elementary School","ADDRESS":"5412 29TH ST NE","CITY":"TACOMA","ZIP":"98422","DISTRICT":"TACOMA","DIST_NO":"010","TYPE":"ELEM","PHONE":"(253) 571-6933","WEBSITE":"https://www.tacomaschools.org/nt/Pages/default.aspx","PRS_ID":169,"GRADE":"K-5","SHAPE_Leng":2320.33501576,"Shape_Le_1":2320.33501576,"Shape_Area":336400.112244}},
{"type":"Feature","geometry":{"type":"Polygon","coordinates":[[[-122.48501908528065,47.229391860238934],[-122.48501431015575,47.23079051374307],[-122.48597970228114,47.230791704842765],[-122.48598496550527,47.22932447074953],[-122.4850193221246,47.22932327365586],[-122.48501908528065,47.229391860238934]]]},"properties":{"OBJECTID_1":57,"OBJECTID":198,"NAME":"Oakland High School","ADDRESS":"3319 S ADAMS ST","CITY":"TACOMA","ZIP":"98409","DISTRICT":"TACOMA","DIST_NO":"010","TYPE":"HIGH","PHONE":"(253) 571-5100","WEBSITE":"https://www.tacomaschools.org/oakland/Pages/default.aspx","PRS_ID":262,"GRADE":"9-12","SHAPE_Leng":1550.08585893,"Shape_Le_1":1550.08585895,"Shape_Area":128375.2322}},
{"type":"Feature","geometry":{"type":"Polygon","coordinates":[[[-122.51726939631648,47.287297524491485],[-122.51724041502611,47.28983361764768],[-122.51959601994919,47.28985191579897],[-122.51964232402132,47.28730215390405],[-122.51726939631648,47.287297524491485]]]},"properties":{"OBJECTID_1":58,"OBJECTID":213,"NAME":"Point Defiance Elementary","ADDRESS":"4330 N VISSCHER ST","CITY":"TACOMA","ZIP":"98407","DISTRICT":"TACOMA","DIST_NO":"010","TYPE":"ELEM","PHONE":"(253) 571-6900","WEBSITE":"https://www.tacomaschools.org/pd/Pages/default.aspx","PRS_ID":170,"GRADE":"K-5","SHAPE_Leng":3033.71208858,"Shape_Le_1":3033.71208858,"Shape_Area":545547.540879}},
{"type":"Feature","geometry":{"type":"Polygon","coordinates":[[[-122.39893509738745,47.2283373603839],[-122.39902686678283,47.22874383383539],[-122.40091679024036,47.2285461789799],[-122.40078210449177,47.22807379933023],[-122.4007865883736,47.22737149386072],[-122.3990142443074,47.2273721971688],[-122.39891481960142,47.227440297031514],[-122.39890738816642,47.22821610327203],[-122.39893509738745,47.2283373603839]]]},"properties":{"OBJECTID_1":60,"OBJECTID":224,"NAME":"Roosevelt Elementary School","ADDRESS":"3550 E ROOSEVELT AVE","CITY":"TACOMA","ZIP":"98404","DISTRICT":"TACOMA","DIST_NO":"010","TYPE":"ELEM","PHONE":"(253) 571-4400","WEBSITE":"https://www.tacomaschools.org/roosevelt/Pages/default.aspx","PRS_ID":173,"GRADE":"K-5","SHAPE_Leng":1957.40024709,"Shape_Le_1":1957.40024706,"Shape_Area":216277.02486}},
{"type":"Feature","geometry":{"type":"Polygon","coordinates":[[[-122.51081783582492,47.30219733319544],[-122.51097608370223,47.30216518837179],[-122.51097716527153,47.301953119592106],[-122.51156468833878,47.30193341070479],[-122.5115651362364,47.30184320211259],[-122.51081566230052,47.301841421965136],[-122.51081783582492,47.30219733319544]]]},"properties":{"OBJECTID_1":61,"OBJECTID":228,"NAME":"sami - Science and Math Institute","ADDRESS":"5502 FIVE MILE DR","CITY":"TACOMA","ZIP":"98407","DISTRICT":"TACOMA","DIST_NO":"010","TYPE":"HIGH","PHONE":"(253) 571-2300","WEBSITE":"https://www.tacomaschools.org/sami/Pages/default.aspx","PRS_ID":408,"GRADE":"9-12","SHAPE_Leng":631.535237118,"Shape_Le_1":631.535237119,"Shape_Area":10493.7131001}},
{"type":"Feature","geometry":{"type":"Polygon","coordinates":[[[-122.41915832599497,47.209443880546026],[-122.41915761664168,47.209827986542116],[-122.42076741489267,47.20983484589047],[-122.42074385668063,47.2095053394264],[-122.4207461433339,47.2082156278278],[-122.41916060575582,47.20820910986874],[-122.41920063096597,47.20832129659476],[-122.41919906673982,47.20916960278967],[-122.41915832599497,47.209443880546026]]]},"properties":{"OBJECTID_1":65,"OBJECTID":233,"NAME":"Sheridan Elementary","ADDRESS":"5317 MCKINLEY AVE","CITY":"TACOMA","ZIP":"98404","DISTRICT":"TACOMA","DIST_NO":"010","TYPE":"ELEM","PHONE":"(253) 571-5900","WEBSITE":"https://www.tacomaschools.org/sheridan/Pages/default.aspx","PRS_ID":175,"GRADE":"K-5","SHAPE_Leng":2001.21634496,"Shape_Le_1":2001.21634497,"Shape_Area":230343.953878}},
{"type":"Feature","geometry":{"type":"Polygon","coordinates":[[[-122.49669422866398,47.283595884984784],[-122.49668748903595,47.28449976313988],[-122.49842069812252,47.284505947202646],[-122.49842816320022,47.28351972064321],[-122.49669483787768,47.28351371469638],[-122.49669422866398,47.283595884984784]]]},"properties":{"OBJECTID_1":66,"OBJECTID":234,"NAME":"Sherman Elementary School","ADDRESS":"4415 N 38TH ST","CITY":"TACOMA","ZIP":"98407","DISTRICT":"TACOMA","DIST_NO":"010","TYPE":"ELEM","PHONE":"(253) 571-5488","WEBSITE":"https://www.tacomaschools.org/sherman/Pages/default.aspx","PRS_ID":176,"GRADE":"K-5","SHAPE_Leng":1579.79298774,"Shape_Le_1":1579.79298773,"Shape_Area":154741.175951}},
{"type":"Feature","geometry":{"type":"Polygon","coordinates":[[[-122.52488212368375,47.27081813967778],[-122.52657615740343,47.270829140771035],[-122.52657696459747,47.269785774899425],[-122.52645612417872,47.2697857299717],[-122.52645672179497,47.26901564609409],[-122.52488000108741,47.26900541300179],[-122.52488212368375,47.27081813967778]]]},"properties":{"OBJECTID_1":67,"OBJECTID":236,"NAME":"Skyline Elementary School","ADDRESS":"2301 N MILDRED ST","CITY":"TACOMA","ZIP":"98406","DISTRICT":"TACOMA","DIST_NO":"010","TYPE":"ELEM","PHONE":"(253) 571-7800","WEBSITE":"https://www.tacomaschools.org/skyline/Pages/default.aspx","PRS_ID":177,"GRADE":"K-5","SHAPE_Leng":2164.67867838,"Shape_Le_1":2164.67867838,"Shape_Area":269937.690699}},
{"type":"Feature","geometry":{"type":"Polygon","coordinates":[[[-122.44694419622871,47.26654532295921],[-122.44943688625021,47.26791121333436],[-122.44982956018391,47.26813781561859],[-122.45063422858402,47.26868280774722],[-122.45015945670748,47.266881750176005],[-122.45046171698576,47.26645071605492],[-122.45041553398663,47.26642111217886],[-122.45074346931868,47.265953797461854],[-122.44827322865555,47.26515086207944],[-122.44735925165226,47.26645207705864],[-122.44709998769575,47.26631273464224],[-122.44694419622871,47.26654532295921]]]},"properties":{"OBJECTID_1":70,"OBJECTID":245,"NAME":"Stadium High School","ADDRESS":"111 N E ST","CITY":"TACOMA","ZIP":"98403","DISTRICT":"TACOMA","DIST_NO":"010","TYPE":"HIGH","PHONE":"(253) 571-3100","WEBSITE":"https://www.tacomaschools.org/stadium/Pages/default.aspx","PRS_ID":188,"GRADE":"9-12","SHAPE_Leng":3634.81786685,"Shape_Le_1":3634.81786685,"Shape_Area":571267.445021}},
{"type":"Feature","geometry":{"type":"Polygon","coordinates":[[[-122.45654110668539,47.17494000430307],[-122.45654244871284,47.175259990910924],[-122.45745852620777,47.17528609436656],[-122.45745910302944,47.17558744751898],[-122.4578073480639,47.17557517692799],[-122.45774875702561,47.17392466570153],[-122.45766413182082,47.17388361528329],[-122.45421880657271,47.17388659687002],[-122.45421908268239,47.17524893564067],[-122.45522378397763,47.17525085652498],[-122.45522371251224,47.17560930428716],[-122.45590149583022,47.17561064336311],[-122.45590066148056,47.17494091970576],[-122.45654110668539,47.17494000430307]]]},"properties":{"OBJECTID_1":71,"OBJECTID":246,"NAME":"Stafford Elementary","ADDRESS":"1615 S 92ND ST\r\n","CITY":"TACOMA","ZIP":"98444","DISTRICT":"TACOMA","DIST_NO":"010","TYPE":"ELEM","PHONE":"(253) 571-4300","WEBSITE":"https://www.tacomaschools.org/stafford/Pages/default.aspx","PRS_ID":355,"GRADE":"K-5","SHAPE_Leng":3485.65263469,"Shape_Le_1":3485.65263469,"Shape_Area":456386.709492}},
{"type":"Feature","geometry":{"type":"Polygon","coordinates":[[[-122.45921269539048,47.24478061025736],[-122.45987829143289,47.24470899632884],[-122.46106703954315,47.2447040322148],[-122.46091007899119,47.244019553119045],[-122.459814129139,47.24402260262369],[-122.45977092597913,47.243832953495456],[-122.45901512916727,47.24391325963919],[-122.45921269539048,47.24478061025736]]]},"properties":{"OBJECTID_1":72,"OBJECTID":248,"NAME":"Stanley Elementary School","ADDRESS":"1712 S 17TH ST","CITY":"TACOMA","ZIP":"98405","DISTRICT":"TACOMA","DIST_NO":"010","TYPE":"ELEM","PHONE":"(253) 571-4500","WEBSITE":"https://www.tacomaschools.org/stanley/Pages/default.aspx","PRS_ID":178,"GRADE":"K-5","SHAPE_Leng":1567.68406423,"Shape_Le_1":1567.68406423,"Shape_Area":128943.322923}},
{"type":"Feature","geometry":{"type":"Polygon","coordinates":[[[-122.43424341240747,47.211671044570885],[-122.43646471939644,47.21168620898508],[-122.43645464997857,47.21011086978671],[-122.43423455088379,47.210110322745884],[-122.43424341240747,47.211671044570885]]]},"properties":{"OBJECTID_1":73,"OBJECTID":251,"NAME":"Stewart Middle School","ADDRESS":"5010 PACIFIC AVE","CITY":"TACOMA","ZIP":"98408","DISTRICT":"TACOMA","DIST_NO":"010","TYPE":"MID","PHONE":"(253) 571-2200","WEBSITE":"https://www.tacomaschools.org/stewart/Pages/default.aspx","PRS_ID":198,"GRADE":"6-8","SHAPE_Leng":2247.72942357,"Shape_Le_1":2247.72942357,"Shape_Area":315650.792116}},
{"type":"Feature","geometry":{"type":"Polygon","coordinates":[[[-122.43935335420746,47.252393704038944],[-122.43941491072839,47.25266453890706],[-122.43981273294852,47.25262229115953],[-122.4397511707027,47.25235146196013],[-122.43935335420746,47.252393704038944]]]},"properties":{"OBJECTID_1":76,"OBJECTID":261,"NAME":"Tacoma School of the Arts - Broadway","ADDRESS":"1117 BROADWAY","CITY":"TACOMA","ZIP":"98402","DISTRICT":"TACOMA","DIST_NO":"010","TYPE":"HIGH","PHONE":"(253) 571-7900","WEBSITE":"https://www.tacomaschools.org/sota/Pages/default.aspx","PRS_ID":359,"GRADE":"9-12","SHAPE_Leng":399.901377546,"Shape_Le_1":399.90137755,"Shape_Area":9995.0632745}},
{"type":"Feature","geometry":{"type":"Polygon","coordinates":[[[-122.44094222057844,47.255137056647506],[-122.44119871614691,47.25510980978151],[-122.44109280627934,47.25466347703039],[-122.44061914132357,47.25471380184185],[-122.44094222057844,47.255137056647506]]]},"properties":{"OBJECTID_1":77,"OBJECTID":262,"NAME":"Tacoma School of the Arts - Main Office","ADDRESS":"302 S 9TH ST","CITY":"TACOMA","ZIP":"98402","DISTRICT":"TACOMA","DIST_NO":"010","TYPE":"HIGH","PHONE":"(253) 571-7900","WEBSITE":"https://www.tacomaschools.org/sota/Pages/default.aspx","PRS_ID":359,"GRADE":"9-12","SHAPE_Leng":523.405937982,"Shape_Le_1":523.405938003,"Shape_Area":15088.9460728}},
{"type":"Feature","geometry":{"type":"Polygon","coordinates":[[[-122.4370502554608,47.24333206547076],[-122.43700409623374,47.24312897920219],[-122.4365272863839,47.243179202280395],[-122.43658267716486,47.24342293334521],[-122.4370502554608,47.24333206547076]]]},"properties":{"OBJECTID_1":78,"OBJECTID":263,"NAME":"Tacoma School of the Arts - Pacific Ave","ADDRESS":"1950 PACIFIC AVE","CITY":"TACOMA","ZIP":"98402","DISTRICT":"TACOMA","DIST_NO":"010","TYPE":"HIGH","PHONE":"(253) 571-7900","WEBSITE":"https://www.tacomaschools.org/sota/Pages/default.aspx","PRS_ID":362,"GRADE":"9-12","SHAPE_Leng":419.594148698,"Shape_Le_1":419.594431901,"Shape_Area":10780.4071821}},
{"type":"Feature","geometry":{"type":"Polygon","coordinates":[[[-122.44009856600385,47.25245325433831],[-122.44057701215927,47.25239966961051],[-122.44050004947852,47.2520611467192],[-122.44002266719382,47.25211183591799],[-122.44009856600385,47.25245325433831]]]},"properties":{"OBJECTID_1":79,"OBJECTID":264,"NAME":"Tacoma School of the Arts - Ted Brown Extention","ADDRESS":"1124 BROADWAY","CITY":"TACOMA","ZIP":"98402","DISTRICT":"TACOMA","DIST_NO":"010","TYPE":"HIGH","PHONE":"(253) 571-7900","WEBSITE":"https://www.tacomaschools.org/sota/Pages/default.aspx","PRS_ID":481,"GRADE":"9-12","SHAPE_Leng":495.552195522,"Shape_Le_1":495.552195493,"Shape_Area":15097.2037893}},
{"type":"Feature","geometry":{"type":"Polygon","coordinates":[[[-122.51100597127412,47.281397477611826],[-122.51100516463696,47.28154577359858],[-122.51499001595272,47.28158263497471],[-122.51499262900049,47.281171378409304],[-122.51563710434652,47.28117732831249],[-122.5156449839918,47.27995102176251],[-122.51514226670156,47.27986456679311],[-122.51265220690283,47.27984324655129],[-122.51264791262807,47.28007064679574],[-122.51189239834993,47.28019960149514],[-122.51156027222507,47.28029535198249],[-122.51116064950277,47.280578199776656],[-122.51103521741118,47.28080104553793],[-122.51100597127412,47.281397477611826]]]},"properties":{"OBJECTID_1":80,"OBJECTID":269,"NAME":"Truman Middle School","ADDRESS":"5801 N 35TH ST","CITY":"TACOMA","ZIP":"98407","DISTRICT":"TACOMA","DIST_NO":"010","TYPE":"MID","PHONE":"(253) 571-5600","WEBSITE":"https://www.tacomaschools.org/truman/Pages/default.aspx","PRS_ID":199,"GRADE":"6-8","SHAPE_Leng":3363.56974492,"Shape_Le_1":3363.56974491,"Shape_Area":629209.858843}},
{"type":"Feature","geometry":{"type":"Polygon","coordinates":[[[-122.51605874096515,47.24190286411661],[-122.51844173249978,47.24187217841275],[-122.51843675134616,47.24006547972091],[-122.51788910032906,47.24007268526093],[-122.51790195049885,47.24062219400474],[-122.51686443488346,47.24063371108468],[-122.51687789196095,47.24112369873927],[-122.51603765951363,47.24113475019265],[-122.51605874096515,47.24190286411661]]]},"properties":{"OBJECTID_1":85,"OBJECTID":278,"NAME":"Wainwright Intermediate School","ADDRESS":"130 ALAMEDA AVE","CITY":"FIRCREST","ZIP":"98466","DISTRICT":"TACOMA","DIST_NO":"010","TYPE":"MID","PHONE":"(253) 571-2100","WEBSITE":"https://www.tacomaschools.org/whittier/Pages/default.aspx","PRS_ID":475,"GRADE":"6-8","SHAPE_Leng":2512.98634467,"Shape_Le_1":2512.98634464,"Shape_Area":263038.75782}},
{"type":"Feature","geometry":{"type":"Polygon","coordinates":[[[-122.38922167457541,47.20016669540692],[-122.39086857639506,47.20016230723803],[-122.39087724529348,47.20041694038224],[-122.39178930927787,47.20041747853912],[-122.39173576933108,47.19902858902328],[-122.3891831366983,47.19904705483481],[-122.38922167457541,47.20016669540692]]]},"properties":{"OBJECTID_1":86,"OBJECTID":280,"NAME":"Waller Road Elementary School","ADDRESS":"6312 WALLER RD E","CITY":"TACOMA","ZIP":"98443","DISTRICT":"PUYALLUP","DIST_NO":"003","TYPE":"ELEM","PHONE":"(253) 841-8745","WEBSITE":"https://wal.puyallup.k12.wa.us/","PRS_ID":121,"GRADE":"K-6","SHAPE_Leng":2278.86285075,"Shape_Le_1":2278.86285078,"Shape_Area":281955.42362}},
{"type":"Feature","geometry":{"type":"Polygon","coordinates":[[[-122.48582917813648,47.27190428825653],[-122.4871189410162,47.271902279989746],[-122.48711743655298,47.2711894736329],[-122.48582773891413,47.27119146036421],[-122.48582917813648,47.27190428825653]]]},"properties":{"OBJECTID_1":87,"OBJECTID":281,"NAME":"Washington Elementary School","ADDRESS":"2615 N ADAMS ST","CITY":"TACOMA","ZIP":"98407","DISTRICT":"TACOMA","DIST_NO":"010","TYPE":"ELEM","PHONE":"(253) 571-5700","WEBSITE":"https://www.tacomaschools.org/washington/Pages/default.aspx","PRS_ID":182,"GRADE":"K-5","SHAPE_Leng":1160.36390078,"Shape_Le_1":1160.36390078,"Shape_Area":83247.0969522}},
{"type":"Feature","geometry":{"type":"Polygon","coordinates":[[[-122.44795978151478,47.22137012743496],[-122.44795377581144,47.221699230232986],[-122.45061080461238,47.22172092432878],[-122.45062290132951,47.221062656150195],[-122.447965787275,47.22104102819356],[-122.44795978151478,47.22137012743496]]]},"properties":{"OBJECTID_1":88,"OBJECTID":286,"NAME":"Whitman Elementary School","ADDRESS":"1120 S 39TH ST","CITY":"TACOMA","ZIP":"98418","DISTRICT":"TACOMA","DIST_NO":"010","TYPE":"ELEM","PHONE":"(253) 571-7272","WEBSITE":"https://www.tacomaschools.org/whitman/Pages/default.aspx","PRS_ID":183,"GRADE":"K-5","SHAPE_Leng":1800.80324564,"Shape_Le_1":1800.80324563,"Shape_Area":158539.363732}},
{"type":"Feature","geometry":{"type":"Polygon","coordinates":[[[-122.51320969130735,47.22834498078422],[-122.5132104476646,47.22930150656341],[-122.51560863513643,47.22928498736076],[-122.5156051672521,47.228320489991106],[-122.51320969130735,47.22834498078422]]]},"properties":{"OBJECTID_1":89,"OBJECTID":287,"NAME":"Whittier Elementary","ADDRESS":"777 ELM TREE LN","CITY":"FIRCREST","ZIP":"98466","DISTRICT":"TACOMA","DIST_NO":"010","TYPE":"ELEM","PHONE":"(253) 571-7500","WEBSITE":"https://www.tacomaschools.org/whittier/Pages/default.aspx","PRS_ID":184,"GRADE":"K-5","SHAPE_Leng":1894.74194157,"Shape_Le_1":1894.74194157,"Shape_Area":209523.239244}},
{"type":"Feature","geometry":{"type":"Polygon","coordinates":[[[-122.44327716255857,47.244574501020956],[-122.44279973312855,47.244624653100615],[-122.44289213208897,47.245030840882706],[-122.44340934383504,47.24497652168826],[-122.44327716255857,47.244574501020956]]]},"properties":{"OBJECTID_1":90,"OBJECTID":290,"NAME":"Willie Stewart Academy","ADDRESS":"1818 TACOMA AVE S","CITY":"TACOMA","ZIP":"98402","DISTRICT":"TACOMA","DIST_NO":"010","TYPE":"HIGH","PHONE":"(253) 571-3270","WEBSITE":"https://www.tacomaschools.org/schools/wsa/Pages/default.aspx","PRS_ID":361,"GRADE":"9-12","SHAPE_Leng":559.814771451,"Shape_Le_1":559.814771438,"Shape_Area":19487.6858767}},
{"type":"Feature","geometry":{"type":"Polygon","coordinates":[[[-122.50534504879734,47.26236140447682],[-122.50534576681535,47.262592008296515],[-122.51313062477124,47.26263259992724],[-122.51313798325165,47.260044716746386],[-122.50545046024358,47.26001461023315],[-122.50543714753695,47.261639658655675],[-122.50534280646337,47.261639169262416],[-122.50534504879734,47.26236140447682]]]},"properties":{"OBJECTID_1":91,"OBJECTID":291,"NAME":"Wilson High School","ADDRESS":"1202 N ORCHARD ST","CITY":"TACOMA","ZIP":"98406","DISTRICT":"TACOMA","DIST_NO":"010","TYPE":"HIGH","PHONE":"(253) 571-6000","WEBSITE":"https://www.tacomaschools.org/wilson/Pages/default.aspx","PRS_ID":189,"GRADE":"9-12","SHAPE_Leng":5749.5618443,"Shape_Le_1":5749.5618443,"Shape_Area":1807733.5299}}
]}